{
"type": "FeatureCollection",
"crs": { "type": "name", "properties": { "name": "urn:ogc:def:crs:OGC:1.3:CRS84" } },
                                                                                
"features": [
{ "type": "Feature", "properties": { "LatDec": 35.36027778, "LonDec": -120.6566667, "FileNo": "A0834673", "Registrati": 1007787, "Title": "Associate General Counsel", "Address": "CUESTA ELECTRONICS SITE LOS PADRES NATL FOREST 2.75 MI SW", "City": "SANTA MARGARITA", "Zip": 93405, "TowerType": "TOWER", "Field35": "96-AWP-1285-OE", "Company": "SBA Structures, LLC", "fullname": "Edward Roach" }, "geometry": { "type": "Point", "coordinates": [ -120.6566667, 35.36027777999967 ] } },
{ "type": "Feature", "properties": { "LatDec": 35.635, "LonDec": -120.6980556, "FileNo": "A0011786", "Registrati": 1009843, "Title": "JOAN ROBBINS", "Address": "21ST ST WEST SIDE RESERVOIR", "City": "PASO ROBLES", "Zip": 93446, "TowerType": "POLE", "Field35": "96-AWP-3286-OE", "Company": "GTE MOBILNET OF SANTA BARBARA LIMITED PARTNERSHIP", "fullname": null }, "geometry": { "type": "Point", "coordinates": [ -120.6980556, 35.634999999999678 ] } },
{ "type": "Feature", "properties": { "LatDec": 35.26388889, "LonDec": -120.6663889, "FileNo": "A0012088", "Registrati": 1010087, "Title": "JOAN ROBBINS", "Address": "O HIGUERA ST", "City": "SAN LUIS OBISPO", "Zip": 93401, "TowerType": "POLE", "Field35": "96-AWP-3225-OE", "Company": "GTE MOBILNET OF SANTA BARBARA LIMITED PARTNERSHIP", "fullname": null }, "geometry": { "type": "Point", "coordinates": [ -120.6663889, 35.263888889999677 ] } },
{ "type": "Feature", "properties": { "LatDec": 35.64972222, "LonDec": -120.6958333, "FileNo": "A0015673", "Registrati": 1013064, "Title": "VADIM KORCHNOY", "Address": "908 28TH ST", "City": "PASO ROBLES", "Zip": 93446, "TowerType": "POLE", "Field35": "96-AWP-2246-OE", "Company": "PACIFIC BELL MOBILE SERVICES", "fullname": null }, "geometry": { "type": "Point", "coordinates": [ -120.6958333, 35.649722219999717 ] } },
{ "type": "Feature", "properties": { "LatDec": 35.54805556, "LonDec": -120.7063889, "FileNo": "A0015674", "Registrati": 1013065, "Title": "VADIM KORCHNOY", "Address": "513 MAIN ST", "City": "TEMPLETON", "Zip": 93465, "TowerType": "POLE", "Field35": "96-AWP-2247-OE", "Company": "PACIFIC BELL MOBILE SERVICES", "fullname": null }, "geometry": { "type": "Point", "coordinates": [ -120.7063889, 35.548055559999696 ] } },
{ "type": "Feature", "properties": { "LatDec": 35.48888889, "LonDec": -120.67, "FileNo": "A0015675", "Registrati": 1013066, "Title": "VADIM KORCHNOY", "Address": "6220 ATASCADERO AVE", "City": "ATASCADERO", "Zip": 93422, "TowerType": "POLE", "Field35": "96-AWP-2248-OE", "Company": "PACIFIC BELL MOBILE SERVICES", "fullname": null }, "geometry": { "type": "Point", "coordinates": [ -120.67, 35.488888889999679 ] } },
{ "type": "Feature", "properties": { "LatDec": 35.28861111, "LonDec": -120.65777780000001, "FileNo": "A0079263", "Registrati": 1014229, "Title": "GLEN S. NASH", "Address": "675 CALIFORNIA BLVD", "City": "SAN LUIS OBISPO", "Zip": 93401, "TowerType": "BPOLE", "Field35": "92-AWP-1012-OE", "Company": "CALIFORNIA, STATE OF", "fullname": null }, "geometry": { "type": "Point", "coordinates": [ -120.6577778, 35.288611109999678 ] } },
{ "type": "Feature", "properties": { "LatDec": 35.12, "LonDec": -120.5919444, "FileNo": "A0017181", "Registrati": 1014369, "Title": "JOHN J FLYNN", "Address": "225 N HALCYON RD", "City": "ARROYO GRANDE", "Zip": 93420, "TowerType": "B", "Field35": "96-AWP-1851-OE", "Company": "PACIFIC BELL", "fullname": null }, "geometry": { "type": "Point", "coordinates": [ -120.5919444, 35.119999999999671 ] } },
{ "type": "Feature", "properties": { "LatDec": 35.40138889, "LonDec": -120.12, "FileNo": "A0227750", "Registrati": 1018684, "Title": "REGULATORY COMPLIANCE MANAGER", "Address": "1.3 I. N OF HWY OF 58 NR CR. OF BITTERWATER", "City": "CALIFORNIA VALLEY", "Zip": 93453, "TowerType": "POLE", "Field35": "97-AWP-2452-OE", "Company": "Crown Castle GT Company LLC", "fullname": "CHRISTINE VERRE" }, "geometry": { "type": "Point", "coordinates": [ -120.12, 35.401388889999687 ] } },
{ "type": "Feature", "properties": { "LatDec": 34.90416667, "LonDec": -119.5180556, "FileNo": "A0026428", "Registrati": 1022128, "Title": "JOAN ROBBINS", "Address": "320 FOOTHILL RD", "City": "VENTUCOPA", "Zip": 93252, "TowerType": "POLE", "Field35": "93-AWP-1268-OE", "Company": "GTE MOBILNET OF SANTA BARBARA LIMITED PARTNERSHIP", "fullname": null }, "geometry": { "type": "Point", "coordinates": [ -119.5180556, 34.904166669999668 ] } },
{ "type": "Feature", "properties": { "LatDec": 35.30861111, "LonDec": -120.6002778, "FileNo": "A0052791", "Registrati": 1044749, "Title": "MARILOU EHRENBERG", "Address": "BLACK BUTTE 3 MI NE", "City": "SAN LUIS OBISPO", "Zip": 93401, "TowerType": "TOWER", "Field35": "98-AWP-2944-OE", "Company": "PACIFIC GAS & ELECTRIC COMPANY", "fullname": null }, "geometry": { "type": "Point", "coordinates": [ -120.60027780000001, 35.30861110999966 ] } },
{ "type": "Feature", "properties": { "LatDec": 35.12638889, "LonDec": -120.6072222, "FileNo": "A0803484", "Registrati": 1045153, "Title": "REGULATORY COMPLIANCE MANAGER", "Address": "1541 HILLCREST DRIVE", "City": "GROVER BEACH", "Zip": 93433, "TowerType": "POLE", "Field35": "98-AWP-1925-OE", "Company": "CCTM1 LLC", "fullname": "CHRISTINE VERRE" }, "geometry": { "type": "Point", "coordinates": [ -120.60722220000001, 35.126388889999667 ] } },
{ "type": "Feature", "properties": { "LatDec": 35.36027778, "LonDec": -120.6565833, "FileNo": "A0834676", "Registrati": 1009393, "Title": "Associate General Counsel", "Address": "2.75 MI SW OF CUESTA ELECTRONICS SITE LOS PADRES NATL FOREST", "City": "SANTA MARGARITA", "Zip": 93405, "TowerType": "TOWER", "Field35": "01-AWP-3890-OE", "Company": "SBA Structures, LLC", "fullname": "Edward Roach" }, "geometry": { "type": "Point", "coordinates": [ -120.6565833, 35.36027777999967 ] } },
{ "type": "Feature", "properties": { "LatDec": 35.25944444, "LonDec": -119.89805560000001, "FileNo": "A0015712", "Registrati": 1013102, "Title": "JAMES R PORTER", "Address": "930 FRANKLIN AVE LNAS HOSP", "City": "LEMOORE", "Zip": 93453, "TowerType": "TOWER", "Field35": null, "Company": "KINGS, COUNTY OF", "fullname": null }, "geometry": { "type": "Point", "coordinates": [ -119.89805560000001, 35.259444439999676 ] } },
{ "type": "Feature", "properties": { "LatDec": 35.11277778, "LonDec": -120.6263889, "FileNo": "A0626914", "Registrati": 1013684, "Title": "SENIOR TELECOMMUNICATIONS ENGINEER", "Address": "928 PACIFIC AVE", "City": "GROVER CITY", "Zip": 93445, "TowerType": "TOWER", "Field35": "94-AWP-1138-OE", "Company": "CALIFORNIA, STATE OF", "fullname": "JOHN LEMMON" }, "geometry": { "type": "Point", "coordinates": [ -120.6263889, 35.112777779999647 ] } },
{ "type": "Feature", "properties": { "LatDec": 35.67416667, "LonDec": -120.6383333, "FileNo": "A0627073", "Registrati": 1013689, "Title": "SENIOR TELECOMMUNICATIONS ENGINEER", "Address": "CHP AIR OPS 5020 WING WAY", "City": "PASO ROBLES", "Zip": 93446, "TowerType": "BANT", "Field35": "96-AWP-0730-OE", "Company": "CALIFORNIA, STATE OF", "fullname": "JOHN LEMMON" }, "geometry": { "type": "Point", "coordinates": [ -120.6383333, 35.674166669999678 ] } },
{ "type": "Feature", "properties": { "LatDec": 35.67744444, "LonDec": -120.6338056, "FileNo": "A0737931", "Registrati": 1013690, "Title": "SENIOR TELECOMMUNICATIONS ENGINEER", "Address": "CDF AIR ATTACK BASE PASO ROBLES APT", "City": "PASO ROBLES", "Zip": 93446, "TowerType": "TOWER", "Field35": "2011-AWP-808-NRA", "Company": "CALIFORNIA, STATE OF", "fullname": "JOHN LEMMON" }, "geometry": { "type": "Point", "coordinates": [ -120.6338056, 35.677444439999682 ] } },
{ "type": "Feature", "properties": { "LatDec": 35.32361111, "LonDec": -120.6947222, "FileNo": "A0626831", "Registrati": 1014228, "Title": "SENIOR TELECOMMUNICATIONS ENGINEER", "Address": "CDC MEN'S COLONY HWY 1 N", "City": "SAN LUIS OBISPO", "Zip": 93405, "TowerType": "TOWER", "Field35": "93-AWP-0139-OE", "Company": "CALIFORNIA, STATE OF", "fullname": "JOHN LEMMON" }, "geometry": { "type": "Point", "coordinates": [ -120.69472220000002, 35.323611109999668 ] } },
{ "type": "Feature", "properties": { "LatDec": 35.28277778, "LonDec": -120.6636111, "FileNo": "A0017158", "Registrati": 1014346, "Title": "JOHN J FLYNN", "Address": "872 MORRO ST", "City": "SAN LUIS OBISPO", "Zip": 93401, "TowerType": "B", "Field35": "96-AWP-1176-OE", "Company": "PACIFIC BELL", "fullname": null }, "geometry": { "type": "Point", "coordinates": [ -120.6636111, 35.282777779999698 ] } },
{ "type": "Feature", "properties": { "LatDec": 35.36055556, "LonDec": -120.6569444, "FileNo": "A0612576", "Registrati": 1014967, "Title": "President of Manager of Sole Member", "Address": "CUEST PEAK COMMUNICATIONS SITE N", "City": "SAN LUIS OBISPO", "Zip": 93405, "TowerType": "POLE", "Field35": null, "Company": "El Dorado Broadcasters LLC", "fullname": "Jason Wolff" }, "geometry": { "type": "Point", "coordinates": [ -120.6569444, 35.360555559999696 ] } },
{ "type": "Feature", "properties": { "LatDec": 35.27361111, "LonDec": -120.6688889, "FileNo": "A0018578", "Registrati": 1015528, "Title": "MARILOU EHRENBERG", "Address": "INT WALKER & PACIFIC", "City": "SAN LUIS OBISPO", "Zip": 93401, "TowerType": "B", "Field35": "78-AWE-479-OE", "Company": "PACIFIC GAS & ELECTRIC COMPANY", "fullname": null }, "geometry": { "type": "Point", "coordinates": [ -120.66888890000001, 35.273611109999685 ] } },
{ "type": "Feature", "properties": { "LatDec": 35.61888889, "LonDec": -120.6888889, "FileNo": "A0018580", "Registrati": 1015530, "Title": "MARILOU EHRENBERG", "Address": "4TH & PINE STS", "City": "PASO ROBLES", "Zip": 93446, "TowerType": "B", "Field35": "79-AWE-51-OE", "Company": "PACIFIC GAS & ELECTRIC COMPANY", "fullname": null }, "geometry": { "type": "Point", "coordinates": [ -120.6888889, 35.618888889999681 ] } },
{ "type": "Feature", "properties": { "LatDec": 35.20288889, "LonDec": -120.8440833, "FileNo": "A0804974", "Registrati": 1015533, "Title": "IT MANAGER", "Address": "DIABLO CANYON POWER PLANT", "City": "AVILA BEACH", "Zip": 93405, "TowerType": "LTOWER", "Field35": "2012-WTW-9912-OE", "Company": "PACIFIC GAS & ELECTRIC COMPANY", "fullname": "M JOSEPH HEARNEY" }, "geometry": { "type": "Point", "coordinates": [ -120.8440833, 35.202888889999677 ] } },
{ "type": "Feature", "properties": { "LatDec": 35.20916667, "LonDec": -120.8558333, "FileNo": "A0018584", "Registrati": 1015534, "Title": "MARILOU EHRENBERG", "Address": "DIABLO CANYON POWER PLANT 7 MI NW", "City": "AVILA BEACH", "Zip": 93405, "TowerType": "TOWER", "Field35": "80-AWE-608-OE", "Company": "PACIFIC GAS & ELECTRIC COMPANY", "fullname": null }, "geometry": { "type": "Point", "coordinates": [ -120.8558333, 35.209166669999675 ] } },
{ "type": "Feature", "properties": { "LatDec": 35.32055556, "LonDec": -120.7247222, "FileNo": "A0018585", "Registrati": 1015535, "Title": "MARILOU EHRENBERG", "Address": "ON HWY 1 DIABLO CANYON POWER PLANT E", "City": "AVILA BEACH", "Zip": 93405, "TowerType": "TOWER", "Field35": "82-AWP-108-OE", "Company": "PACIFIC GAS & ELECTRIC COMPANY", "fullname": null }, "geometry": { "type": "Point", "coordinates": [ -120.72472220000002, 35.320555559999669 ] } },
{ "type": "Feature", "properties": { "LatDec": 35.23305556, "LonDec": -120.7847222, "FileNo": "A0018586", "Registrati": 1015536, "Title": "MARILOU EHRENBERG", "Address": "DAVIS PEAK 8 MI WSW", "City": "SAN LUIS OBISPO", "Zip": 93405, "TowerType": "TOWER", "Field35": "80-AWE-231-OE", "Company": "PACIFIC GAS & ELECTRIC COMPANY", "fullname": null }, "geometry": { "type": "Point", "coordinates": [ -120.7847222, 35.233055559999677 ] } },
{ "type": "Feature", "properties": { "LatDec": 35.21166667, "LonDec": -120.84527780000001, "FileNo": "A0018587", "Registrati": 1015537, "Title": "MARILOU EHRENBERG", "Address": "DIABLO CANYON POWER PLANT 7 MI NW", "City": "AVILA BEACH", "Zip": 93405, "TowerType": "TOWER", "Field35": "79-AWE-25-OE", "Company": "PACIFIC GAS & ELECTRIC COMPANY", "fullname": null }, "geometry": { "type": "Point", "coordinates": [ -120.84527780000001, 35.211666669999687 ] } },
{ "type": "Feature", "properties": { "LatDec": 35.18222222, "LonDec": -120.6986111, "FileNo": "A0227579", "Registrati": 1016583, "Title": "REGULATORY COMPLIANCE MANAGER", "Address": "6993 MONTE RD", "City": "SAN LUIS OBISPO", "Zip": 93401, "TowerType": "POLE", "Field35": "97-AWP-0432-OE", "Company": "Crown Castle GT Company LLC", "fullname": "CHRISTINE VERRE" }, "geometry": { "type": "Point", "coordinates": [ -120.6986111, 35.182222219999673 ] } },
{ "type": "Feature", "properties": { "LatDec": 35.50416667, "LonDec": -120.7288889, "FileNo": "A0227663", "Registrati": 1017122, "Title": "REGULATORY COMPLIANCE MANAGER", "Address": "ON SANTA ANA RD AT SANTA ANA RESERVOIR", "City": "ATASCADERO", "Zip": 93422, "TowerType": "POLE", "Field35": "97-AWP-0467-OE", "Company": "Crown Castle GT Company LLC", "fullname": "CHRISTINE VERRE" }, "geometry": { "type": "Point", "coordinates": [ -120.7288889, 35.504166669999691 ] } },
{ "type": "Feature", "properties": { "LatDec": 35.39619444, "LonDec": -120.8505833, "FileNo": "A0227664", "Registrati": 1017123, "Title": "REGULATORY COMPLIANCE MANAGER", "Address": "715 SAN JOAQUIN RD", "City": "MORRO BAY", "Zip": 93442, "TowerType": "TOWER", "Field35": "00-AWP-2532-OE", "Company": "Crown Castle GT Company LLC", "fullname": "CHRISTINE VERRE" }, "geometry": { "type": "Point", "coordinates": [ -120.8505833, 35.39619443999969 ] } },
{ "type": "Feature", "properties": { "LatDec": 35.6465, "LonDec": -120.7375556, "FileNo": "A0269185", "Registrati": 1017124, "Title": "Regulatory Compliance Auditor", "Address": ".5 MI S OF PASO ROBLES RD 3 MI W OF HWY 101", "City": "PASO ROBLES", "Zip": 93446, "TowerType": "TOWER", "Field35": "02-AWP-1169-OE", "Company": "Crown Castle GT Company LLC", "fullname": "David McCann" }, "geometry": { "type": "Point", "coordinates": [ -120.7375556, 35.646499999999691 ] } },
{ "type": "Feature", "properties": { "LatDec": 35.36027778, "LonDec": -120.6561111, "FileNo": "A0453285", "Registrati": 1018365, "Title": "Secretary", "Address": "ATOP CUESTA PEAK", "City": "SAN LUIS OBISPO", "Zip": 93405, "TowerType": "TOWER", "Field35": "97-AWP-0687-OE", "Company": "KSBY COMMUNICATIONS, INC.", "fullname": "Travis Rockey" }, "geometry": { "type": "Point", "coordinates": [ -120.65611110000002, 35.36027777999967 ] } },
{ "type": "Feature", "properties": { "LatDec": 34.90416667, "LonDec": -119.5183333, "FileNo": "A0378894", "Registrati": 1018602, "Title": "Coordinator - Regulatory", "Address": "320 FOOTHILL RD", "City": "VENTUCOPA", "Zip": 93252, "TowerType": "POLE", "Field35": "93-AWP-1269-OE", "Company": "GTE Mobilnet of Santa Barbara Limited Partnership", "fullname": "Elaine Thompson" }, "geometry": { "type": "Point", "coordinates": [ -119.5183333, 34.904166669999668 ] } },
{ "type": "Feature", "properties": { "LatDec": 35.65388889, "LonDec": -120.5188889, "FileNo": "A0347654", "Registrati": 1018603, "Title": "Supervisor - Network Compliance", "Address": "APPROX 1 MI NE", "City": "WHITLEY GARDENS", "Zip": 93446, "TowerType": "POLE", "Field35": "92-AWP-0126-OE", "Company": "GTE Mobilnet  of  Santa Barbara  Limited Partnership", "fullname": "Sonya Dutton" }, "geometry": { "type": "Point", "coordinates": [ -120.5188889, 35.653888889999685 ] } },
{ "type": "Feature", "properties": { "LatDec": 35.19863889, "LonDec": -120.619, "FileNo": "A0358290", "Registrati": 1018681, "Title": "Regulatory Specialist", "Address": "6555 CORAL DE PIEDRA", "City": "SAN LUIS OBISPO", "Zip": 93401, "TowerType": "TOWER", "Field35": "2003-AWP-3920-OE", "Company": "CROWN CASTLE GT COMPANY LLC", "fullname": "Bonnie Clark" }, "geometry": { "type": "Point", "coordinates": [ -120.619, 35.198638889999678 ] } },
{ "type": "Feature", "properties": { "LatDec": 35.29722222, "LonDec": -120.8105556, "FileNo": "A0227748", "Registrati": 1018682, "Title": "REGULATORY COMPLIANCE MANAGER", "Address": "2865 CLARK VALLEY RD", "City": "LOS OSOS", "Zip": 93402, "TowerType": "POLE", "Field35": "94-AWP-1688-OE", "Company": "Crown Castle GT Company LLC", "fullname": "CHRISTINE VERRE" }, "geometry": { "type": "Point", "coordinates": [ -120.81055560000001, 35.297222219999689 ] } },
{ "type": "Feature", "properties": { "LatDec": 35.10691667, "LonDec": -120.5168333, "FileNo": "A0245962", "Registrati": 1018683, "Title": "Regulatory Specialist", "Address": "2.3 MI N OF HWY 101 & LOS BERROS RD", "City": "ARROYO GRANDE", "Zip": 93420, "TowerType": "TOWER", "Field35": "01-AWP-5020-OE", "Company": "Crown Castle GT Company LLC", "fullname": "Lisa Minney" }, "geometry": { "type": "Point", "coordinates": [ -120.5168333, 35.106916669999677 ] } },
{ "type": "Feature", "properties": { "LatDec": 35.77722222, "LonDec": -120.9325, "FileNo": "A0227762", "Registrati": 1018724, "Title": "REGULATORY COMPLIANCE MANAGER", "Address": "2748 INTERLAKE RD", "City": "PASO ROBLES", "Zip": 93426, "TowerType": "POLE", "Field35": "97-AWP-0852-OE", "Company": "Crown Castle GT Company LLC", "fullname": "CHRISTINE VERRE" }, "geometry": { "type": "Point", "coordinates": [ -120.9325, 35.777222219999679 ] } },
{ "type": "Feature", "properties": { "LatDec": 35.52791667, "LonDec": -121.06030560000001, "FileNo": "A0232975", "Registrati": 1019140, "Title": "Regulatory Specialist", "Address": "295 JULIN LN", "City": "CAMBRIA", "Zip": 93428, "TowerType": "TOWER", "Field35": "01-AWP-4721-OE", "Company": "Crown Castle GT Company LLC", "fullname": "Lisa Minney" }, "geometry": { "type": "Point", "coordinates": [ -121.0603056, 35.527916669999698 ] } },
{ "type": "Feature", "properties": { "LatDec": 35.12636111, "LonDec": -120.6073889, "FileNo": "A0753185", "Registrati": 1019478, "Title": "Sr Regulatory Specialist", "Address": "1541 HILLCREST DR", "City": "GROVER BEACH", "Zip": 93433, "TowerType": "TOWER", "Field35": "2006-AWP-2839-OE", "Company": "CROWN CASTLE GT COMPANY LLC", "fullname": "Lisa Minney" }, "geometry": { "type": "Point", "coordinates": [ -120.60738890000002, 35.126361109999671 ] } },
{ "type": "Feature", "properties": { "LatDec": 35.26388889, "LonDec": -120.6675, "FileNo": "A0024166", "Registrati": 1020217, "Title": "GUY P HACKMAN", "Address": "1000' E OF US 101 0 HIGUERA ST .2 MI S", "City": "SAN LUIS OBISPO", "Zip": 93401, "TowerType": "TOWER", "Field35": null, "Company": "SAN LUIS OBISPO BROADCASTING", "fullname": null }, "geometry": { "type": "Point", "coordinates": [ -120.6675, 35.263888889999677 ] } },
{ "type": "Feature", "properties": { "LatDec": 35.52430556, "LonDec": -121.0618889, "FileNo": "A0744257", "Registrati": 1022319, "Title": null, "Address": "FORMER CAMBRIA AFS 5 MI SE", "City": "CAMBRIA", "Zip": 93428, "TowerType": "TOWER", "Field35": "2011-AWP-3537-OE", "Company": "BKS Cambria LLC", "fullname": "Karin Schaefers" }, "geometry": { "type": "Point", "coordinates": [ -121.0618889, 35.524305559999675 ] } },
{ "type": "Feature", "properties": { "LatDec": 35.37194444, "LonDec": -120.8572222, "FileNo": "A0540194", "Registrati": 1022862, "Title": "Communications Contact", "Address": "MORRO BAY POWER PLANT", "City": "MORRO BAY", "Zip": 93442, "TowerType": "TOWER", "Field35": "NOS 05-0135", "Company": "LSP Morro Bay, LLC", "fullname": "Ron Kemper" }, "geometry": { "type": "Point", "coordinates": [ -120.8572222, 35.371944439999695 ] } },
{ "type": "Feature", "properties": { "LatDec": 35.21166667, "LonDec": -120.85444440000001, "FileNo": "A0027285", "Registrati": 1022863, "Title": "JAN CICERO", "Address": "DIABLO CANYON POWER PLANT 7 MI NW", "City": "AVILA BEACH", "Zip": 93405, "TowerType": "B", "Field35": null, "Company": "PACIFIC GAS & ELECTRIC COMPANY", "fullname": null }, "geometry": { "type": "Point", "coordinates": [ -120.8544444, 35.211666669999687 ] } },
{ "type": "Feature", "properties": { "LatDec": 35.28277778, "LonDec": -120.6636111, "FileNo": "A0574576", "Registrati": 1023627, "Title": "SENIOR ATTORNEY - AT&T SERVICES, INC.", "Address": "872 MORRO ST", "City": "SAN LUISOBISPO", "Zip": 93401, "TowerType": "BTWR", "Field35": "95-AWP-2120-OE", "Company": "AT&T CORP.", "fullname": "JAMES J.R. TALBOT" }, "geometry": { "type": "Point", "coordinates": [ -120.6636111, 35.282777779999698 ] } },
{ "type": "Feature", "properties": { "LatDec": 35.65416667, "LonDec": -120.6822222, "FileNo": "A0033280", "Registrati": 1028048, "Title": "SYLVIA DELLAR", "Address": "3 MI E OF NORTH RIVER RD", "City": "PASO ROBLES", "Zip": 93446, "TowerType": "TOWER", "Field35": null, "Company": "DELLAR, SYLVIA  DBA =  KPRL", "fullname": null }, "geometry": { "type": "Point", "coordinates": [ -120.6822222, 35.654166669999704 ] } },
{ "type": "Feature", "properties": { "LatDec": 35.36, "LonDec": -120.8238889, "FileNo": "A0477312", "Registrati": 1044085, "Title": "Exec. V.P. Distribution Development", "Address": "TWR 1 - 200 YARDS SE OF CA ROUTE #1 & SOUTH BAY BLVD", "City": "MORRO BAY", "Zip": 93442, "TowerType": "3TA1", "Field35": "98-AWP-0795-OE", "Company": "Citicasters Co.", "fullname": "Jeff Littlejohn" }, "geometry": { "type": "Point", "coordinates": [ -120.8238889, 35.359999999999665 ] } },
{ "type": "Feature", "properties": { "LatDec": 35.35944444, "LonDec": -120.8255556, "FileNo": "A0477312", "Registrati": 1044085, "Title": "Exec. V.P. Distribution Development", "Address": "TWR 1 - 200 YARDS SE OF CA ROUTE #1 & SOUTH BAY BLVD", "City": "MORRO BAY", "Zip": 93442, "TowerType": "3TA1", "Field35": "98-AWP-0795-OE", "Company": "Citicasters Co.", "fullname": "Jeff Littlejohn" }, "geometry": { "type": "Point", "coordinates": [ -120.82555560000002, 35.359444439999677 ] } },
{ "type": "Feature", "properties": { "LatDec": 35.36, "LonDec": -120.825, "FileNo": "A0477313", "Registrati": 1044086, "Title": "Exec. V.P. Distribution Development", "Address": "TWR 2 - 200 YARDS SE OF CA ROUTE #1 & SOUTH BAY BLVD", "City": "MORRO BAY", "Zip": 93442, "TowerType": "3TA2", "Field35": "98-AWP-0796-OE", "Company": "Citicasters Co.", "fullname": "Jeff Littlejohn" }, "geometry": { "type": "Point", "coordinates": [ -120.825, 35.359999999999665 ] } },
{ "type": "Feature", "properties": { "LatDec": 35.36, "LonDec": -120.8238889, "FileNo": "A0477313", "Registrati": 1044086, "Title": "Exec. V.P. Distribution Development", "Address": "TWR 2 - 200 YARDS SE OF CA ROUTE #1 & SOUTH BAY BLVD", "City": "MORRO BAY", "Zip": 93442, "TowerType": "3TA2", "Field35": "98-AWP-0796-OE", "Company": "Citicasters Co.", "fullname": "Jeff Littlejohn" }, "geometry": { "type": "Point", "coordinates": [ -120.8238889, 35.359999999999665 ] } },
{ "type": "Feature", "properties": { "LatDec": 35.36027778, "LonDec": -120.8244444, "FileNo": "A0477314", "Registrati": 1044087, "Title": "Exec. V.P. Distribution Development", "Address": "TWR 3 - 200 YARDS SE OF CA ROUTE #1 & SOUTH BAY BLVD", "City": "MORRO BAY", "Zip": 93442, "TowerType": "3TA3", "Field35": "98-AWP-0797-OE", "Company": "Citicasters Co.", "fullname": "Jeff Littlejohn" }, "geometry": { "type": "Point", "coordinates": [ -120.8244444, 35.36027777999967 ] } },
{ "type": "Feature", "properties": { "LatDec": 35.36, "LonDec": -120.8238889, "FileNo": "A0477314", "Registrati": 1044087, "Title": "Exec. V.P. Distribution Development", "Address": "TWR 3 - 200 YARDS SE OF CA ROUTE #1 & SOUTH BAY BLVD", "City": "MORRO BAY", "Zip": 93442, "TowerType": "3TA3", "Field35": "98-AWP-0797-OE", "Company": "Citicasters Co.", "fullname": "Jeff Littlejohn" }, "geometry": { "type": "Point", "coordinates": [ -120.8238889, 35.359999999999665 ] } },
{ "type": "Feature", "properties": { "LatDec": 35.28861111, "LonDec": -120.6583333, "FileNo": "A0063180", "Registrati": 1053731, "Title": "GLEN S NASH", "Address": "675 CALIFORNIA BLVD", "City": "San Luis Obispo", "Zip": 93401, "TowerType": "TOWER", "Field35": "98-AWP-2024-OE", "Company": "CALIFORNIA, STATE OF", "fullname": null }, "geometry": { "type": "Point", "coordinates": [ -120.6583333, 35.288611109999678 ] } },
{ "type": "Feature", "properties": { "LatDec": 35.23416667, "LonDec": -120.6769444, "FileNo": "A0616718", "Registrati": 1063799, "Title": "President & CEO", "Address": "4745 VACHELLE LANE", "City": "SAN LUIS OBISPO", "Zip": 93401, "TowerType": "TOWER", "Field35": null, "Company": "Mapleton of San Luis Obispo, LLC", "fullname": "Adam Nathanson" }, "geometry": { "type": "Point", "coordinates": [ -120.6769444, 35.234166669999674 ] } },
{ "type": "Feature", "properties": { "LatDec": 35.64622222, "LonDec": -120.7389444, "FileNo": "A0553811", "Registrati": 1065713, "Title": "Regulatory Specialist", "Address": "PORTNOFF HILL", "City": "PASO ROBLES", "Zip": 93446, "TowerType": "TOWER", "Field35": "2007-AWP-3294-OE", "Company": "Pinnacle Towers LLC", "fullname": "Rosa Morrison" }, "geometry": { "type": "Point", "coordinates": [ -120.7389444, 35.646222219999679 ] } },
{ "type": "Feature", "properties": { "LatDec": 35.27652778, "LonDec": -120.6548056, "FileNo": "A0760110", "Registrati": 1200475, "Title": "Project Engineer", "Address": "UP DEPOT RAILROAD AVE", "City": "SAN LUIS OBISPO", "Zip": 93401, "TowerType": "TOWER", "Field35": "2012-AWP-2167-OE", "Company": "UNION PACIFIC RAILROAD", "fullname": "Thomas McGovern" }, "geometry": { "type": "Point", "coordinates": [ -120.6548056, 35.276527779999661 ] } },
{ "type": "Feature", "properties": { "LatDec": 35.64580556, "LonDec": -120.7382222, "FileNo": "A0222977", "Registrati": 1202071, "Title": "President", "Address": "3.5 miles E", "City": "Paso Robles", "Zip": 93446, "TowerType": "TOWER", "Field35": "94-AWP-1973-OE", "Company": "Mountain Union Telecom, LLC", "fullname": "David Weisman" }, "geometry": { "type": "Point", "coordinates": [ -120.73822220000001, 35.645805559999694 ] } },
{ "type": "Feature", "properties": { "LatDec": 35.15663889, "LonDec": -120.6371944, "FileNo": "A0740267", "Registrati": 1203251, "Title": "Vice President", "Address": "End of longview Road, Pismo Beach.", "City": "Pismo Beach", "Zip": 93449, "TowerType": "TOWER", "Field35": "2011-AWP-3544-OE", "Company": "Mapleton of San Luis Obispo, LLC", "fullname": "Marcia Darden" }, "geometry": { "type": "Point", "coordinates": [ -120.6371944, 35.156638889999698 ] } },
{ "type": "Feature", "properties": { "LatDec": 35.26375, "LonDec": -120.6666667, "FileNo": "A0108334", "Registrati": 1207823, "Title": "Radio Systems Technician", "Address": "0 South Higuera", "City": "San Luis Obispo", "Zip": 93401, "TowerType": "TOWER", "Field35": "99-AWP-1993-OE", "Company": "San Luis Obispo, City Of", "fullname": "Richard Helzer" }, "geometry": { "type": "Point", "coordinates": [ -120.6666667, 35.263749999999682 ] } },
{ "type": "Feature", "properties": { "LatDec": 35.31969444, "LonDec": -120.60127780000001, "FileNo": "A0620075", "Registrati": 1210900, "Title": "Regulatory Specialist", "Address": "3.2 miles NE of", "City": "San Luis Obispo", "Zip": 93453, "TowerType": "TOWER", "Field35": "2008-AWP-486-OE", "Company": "Crown Castle MU LLC", "fullname": "Bonnie Clark" }, "geometry": { "type": "Point", "coordinates": [ -120.60127780000001, 35.31969443999968 ] } },
{ "type": "Feature", "properties": { "LatDec": 35.26383333, "LonDec": -120.6665556, "FileNo": "A0802995", "Registrati": 1212586, "Title": "ASSISTANT SECRETARY OF MANAGER", "Address": "2877 South Higuera St.", "City": "San Luis Obispo", "Zip": 93401, "TowerType": "POLE", "Field35": "2011-AWP-2622-OE", "Company": "NEW CINGULAR WIRELESS PCS, LLC", "fullname": "MICHAEL GOGGIN" }, "geometry": { "type": "Point", "coordinates": [ -120.66655560000001, 35.263833329999649 ] } },
{ "type": "Feature", "properties": { "LatDec": 35.26388889, "LonDec": -120.6663889, "FileNo": "A0805137", "Registrati": 1213841, "Title": "Associate General Counsel", "Address": "2877 HIGUERA STREET", "City": "SAN LUIS OBISPO", "Zip": 93401, "TowerType": "POLE", "Field35": "00-AWP-0584-OE", "Company": "SBA 2012 TC Assets, LLC", "fullname": "Edward Roach" }, "geometry": { "type": "Point", "coordinates": [ -120.6663889, 35.263888889999677 ] } },
{ "type": "Feature", "properties": { "LatDec": 35.26802778, "LonDec": -120.65238890000001, "FileNo": "A0840763", "Registrati": 1215757, "Title": "Radio Engineer", "Address": "Southern Pacific Milepost 252.3", "City": "San Luis Obispo", "Zip": 93401, "TowerType": "POLE", "Field35": "00-AWP-1849-OE", "Company": "MCI Communications", "fullname": "Jennifer Lauzon" }, "geometry": { "type": "Point", "coordinates": [ -120.65238890000001, 35.268027779999677 ] } },
{ "type": "Feature", "properties": { "LatDec": 35.1995, "LonDec": -120.6186944, "FileNo": "A0782662", "Registrati": 1218758, "Title": "Corporate Counsel", "Address": "6555 CORRAL DE PIEDRA ROAD", "City": "SAN LUIS OBISPO", "Zip": 93401, "TowerType": "POLE", "Field35": "00-AWP-2791-OE", "Company": "T-Mobile West LLC", "fullname": "Shannon Reilly Kraus" }, "geometry": { "type": "Point", "coordinates": [ -120.6186944, 35.199499999999659 ] } },
{ "type": "Feature", "properties": { "LatDec": 35.19869444, "LonDec": -120.6189167, "FileNo": "A0428795", "Registrati": 1218760, "Title": "Director", "Address": "6555 CORRAL DE PIEDRA ROAD", "City": "SAN LUIS OBISPO", "Zip": 93401, "TowerType": "POLE", "Field35": "00-AWP-2790-OE", "Company": "Pacific Bell Wireless, LLC", "fullname": "Dan Menser" }, "geometry": { "type": "Point", "coordinates": [ -120.6189167, 35.198694439999663 ] } },
{ "type": "Feature", "properties": { "LatDec": 35.30061111, "LonDec": -120.6734167, "FileNo": "A0809668", "Registrati": 1222574, "Title": "Consulting Engineer", "Address": "Highway 1 and Highland Drive", "City": "San Luis Obispo", "Zip": 93405, "TowerType": "LTOWER", "Field35": "2012-AWP-7851-OE", "Company": "El Dorado Broadcasters LLC", "fullname": "Thomas Gorton" }, "geometry": { "type": "Point", "coordinates": [ -120.6734167, 35.300611109999672 ] } },
{ "type": "Feature", "properties": { "LatDec": 35.394, "LonDec": -120.7084167, "FileNo": "A0540016", "Registrati": 1223648, "Title": "Regulatory Compliance Manager", "Address": "TV Tower Road", "City": "Santa Margarita", "Zip": 93453, "TowerType": "TOWER", "Field35": "01-AWP-0589-OE", "Company": "Pinnacle Towers LLC", "fullname": "Christine Verre" }, "geometry": { "type": "Point", "coordinates": [ -120.7084167, 35.393999999999686 ] } },
{ "type": "Feature", "properties": { "LatDec": 35.10494444, "LonDec": -120.6188889, "FileNo": "A0203434", "Registrati": 1227629, "Title": "Sites", "Address": "1425 South 4th Street", "City": "Oceano", "Zip": 93445, "TowerType": "POLE", "Field35": "01-AWP-1053-OE", "Company": "Alpine PCS", "fullname": "Aleen Reid" }, "geometry": { "type": "Point", "coordinates": [ -120.61888890000002, 35.104944439999677 ] } },
{ "type": "Feature", "properties": { "LatDec": 35.12527778, "LonDec": -120.60083330000001, "FileNo": "A0272626", "Registrati": 1228546, "Title": "RF Engineer", "Address": "ARROYO GRANDE WATER TANK, HILLCREST DRIVE", "City": "ARROYO GRANDE", "Zip": 93420, "TowerType": "POLE", "Field35": "01-AWP-2265-OE", "Company": "Sprint Spectrum, L.P.", "fullname": "Joni Charles" }, "geometry": { "type": "Point", "coordinates": [ -120.60083330000001, 35.125277779999657 ] } },
{ "type": "Feature", "properties": { "LatDec": 35.62627778, "LonDec": -120.7128333, "FileNo": "A0248353", "Registrati": 1228627, "Title": "Owner", "Address": "1512 Peachy Canyon Road", "City": "Paso Robles", "Zip": 93446, "TowerType": "POLE", "Field35": "00-AWP-3205-OE", "Company": "Paso Robles Radio Ranch", "fullname": "John Thornton" }, "geometry": { "type": "Point", "coordinates": [ -120.7128333, 35.626277779999683 ] } },
{ "type": "Feature", "properties": { "LatDec": 35.64394444, "LonDec": -120.3823889, "FileNo": "A0357851", "Registrati": 1230370, "Title": "Vice President - External Affairs & Law", "Address": "City of Paso Robles, CA", "City": "Paso Robles", "Zip": 93461, "TowerType": "TOWER", "Field35": "01-AWP-3944-OE", "Company": "AT&T Wireless PCS, LLC", "fullname": "Douglas Brandon" }, "geometry": { "type": "Point", "coordinates": [ -120.3823889, 35.643944439999686 ] } },
{ "type": "Feature", "properties": { "LatDec": 35.54794444, "LonDec": -120.7169722, "FileNo": "A0357855", "Registrati": 1230371, "Title": "Vice President - External Affairs & Law", "Address": "City of Atascadero, CA", "City": "Atascadero", "Zip": 93465, "TowerType": "TOWER", "Field35": "01-AWP-3942-OE", "Company": "AT&T Wireless PCS, LLC", "fullname": "Douglas Brandon" }, "geometry": { "type": "Point", "coordinates": [ -120.7169722, 35.547944439999689 ] } },
{ "type": "Feature", "properties": { "LatDec": 35.42138889, "LonDec": -120.6080278, "FileNo": "A0357852", "Registrati": 1230372, "Title": "Vice President - External Affairs & Law", "Address": "City of Santa Margarita, CA", "City": "Santa Margarita", "Zip": 93422, "TowerType": "TOWER", "Field35": "01-AWP-3938-OE", "Company": "AT&T Wireless PCS, LLC", "fullname": "Douglas Brandon" }, "geometry": { "type": "Point", "coordinates": [ -120.6080278, 35.421388889999669 ] } },
{ "type": "Feature", "properties": { "LatDec": 35.50572222, "LonDec": -120.622, "FileNo": "A0357854", "Registrati": 1230373, "Title": "Vice President - External Affairs & Law", "Address": "City of Atascardero, CA", "City": "Atascardero", "Zip": 93465, "TowerType": "TOWER", "Field35": "01-AWP-3936-OE", "Company": "AT&T Wireless PCS, LLC", "fullname": "Douglas Brandon" }, "geometry": { "type": "Point", "coordinates": [ -120.622, 35.505722219999683 ] } },
{ "type": "Feature", "properties": { "LatDec": 35.26111111, "LonDec": -120.63444440000001, "FileNo": "A0322992", "Registrati": 1232242, "Title": "MANAGER - VOICE & WIRELESS NETWORKS", "Address": "3740 ORCUTT RD", "City": "SAN LUIS OBISPO", "Zip": 93401, "TowerType": "UPOLE", "Field35": "01-AWP-5036-OE", "Company": "PACIFIC GAS AND ELECTRIC COMPANY", "fullname": "AL BADELLA" }, "geometry": { "type": "Point", "coordinates": [ -120.63444440000001, 35.261111109999682 ] } },
{ "type": "Feature", "properties": { "LatDec": 35.12527778, "LonDec": -120.60083330000001, "FileNo": "A0272627", "Registrati": 1232305, "Title": "RF Engineer", "Address": "HILL CREST DRIVE", "City": "ARROYO GRANDE", "Zip": 93420, "TowerType": "POLE", "Field35": "01-AWP-5006-OE", "Company": "SPRINT PCS L.L.C.", "fullname": "Joni Charles" }, "geometry": { "type": "Point", "coordinates": [ -120.60083330000001, 35.125277779999657 ] } },
{ "type": "Feature", "properties": { "LatDec": 35.24572222, "LonDec": -120.6468056, "FileNo": "A0430755", "Registrati": 1232913, "Title": "Managing Member", "Address": "Town of San Luis Obispo", "City": "San Luis Obispos", "Zip": 93401, "TowerType": "TOWER", "Field35": "01-AWP-3934-OE", "Company": "Edge Wireless, LLC", "fullname": "Wayne Perry" }, "geometry": { "type": "Point", "coordinates": [ -120.64680560000001, 35.245722219999678 ] } },
{ "type": "Feature", "properties": { "LatDec": 35.12627778, "LonDec": -120.6071667, "FileNo": "A0430756", "Registrati": 1232914, "Title": "Managing Member", "Address": "City of Grover City", "City": "Grover City", "Zip": 93433, "TowerType": "TOWER", "Field35": "01-AWP-3940-OE", "Company": "Edge Wireless, LLC", "fullname": "Wayne Perry" }, "geometry": { "type": "Point", "coordinates": [ -120.60716670000001, 35.126277779999683 ] } },
{ "type": "Feature", "properties": { "LatDec": 35.25594444, "LonDec": -120.6431944, "FileNo": "A0322990", "Registrati": 1233081, "Title": "MANAGER - VOICE & WIRELESS NETWORKS", "Address": "SACRAMENTO DR & RICARDO ST", "City": "SAN LUIS OBISPO", "Zip": 93401, "TowerType": "UPOLE", "Field35": "01-AWP-4968-OE", "Company": "PACIFIC GAS AND ELECTRIC COMPANY", "fullname": "AL BADELLA" }, "geometry": { "type": "Point", "coordinates": [ -120.6431944, 35.255944439999688 ] } },
{ "type": "Feature", "properties": { "LatDec": 35.19891667, "LonDec": -120.6196667, "FileNo": "A0494621", "Registrati": 1233139, "Title": "R & C Specialist", "Address": "Town of Pismo Beach", "City": "Hoppland", "Zip": 93401, "TowerType": "TOWER", "Field35": "01-AWP-4271-OE", "Company": "Edge Wireless, LLC", "fullname": "Janel Chapman" }, "geometry": { "type": "Point", "coordinates": [ -120.6196667, 35.198916669999676 ] } },
{ "type": "Feature", "properties": { "LatDec": 35.72916667, "LonDec": -120.2263889, "FileNo": "A0834506", "Registrati": 1233915, "Title": "Associate General Counsel", "Address": "Highway 46", "City": "Chalomes", "Zip": 93461, "TowerType": "TOWER", "Field35": "02-AWP-0221-OE", "Company": "SBA Properties, LLC", "fullname": "Edward Roach" }, "geometry": { "type": "Point", "coordinates": [ -120.2263889, 35.729166669999685 ] } },
{ "type": "Feature", "properties": { "LatDec": 35.24572222, "LonDec": -120.6468056, "FileNo": "A0797900", "Registrati": 1235902, "Title": "Vice President - PMO\/M&P", "Address": "635 Tank Farm Road", "City": "San Luis Obispo", "Zip": 93401, "TowerType": "POLE", "Field35": "2002-AWP-2131-OE", "Company": "New Cingular Wireless PCS, LLC", "fullname": "John Monday" }, "geometry": { "type": "Point", "coordinates": [ -120.64680560000001, 35.245722219999678 ] } },
{ "type": "Feature", "properties": { "LatDec": 35.12527778, "LonDec": -120.60083330000001, "FileNo": "A0812035", "Registrati": 1239547, "Title": "Associate General Counsel", "Address": "200 Hillcrest", "City": "Arroyo Grande", "Zip": 93420, "TowerType": "POLE", "Field35": "2003-AWP-412-OE", "Company": "SBA 2012 TC Assets, LLC", "fullname": "Edward Roach" }, "geometry": { "type": "Point", "coordinates": [ -120.60083330000001, 35.125277779999657 ] } },
{ "type": "Feature", "properties": { "LatDec": 35.10936111, "LonDec": -120.61927780000001, "FileNo": "A0525596", "Registrati": 1242329, "Title": "Manager, Regulatory Program Compliance", "Address": "1035 HIghland Way (Grover Beach)", "City": "Grover Beach", "Zip": 93433, "TowerType": "POLE", "Field35": "2003-AWP-4620-OE", "Company": "GTE Mobilnet of Santa Barbara Limited Partnership", "fullname": "Jerri Janjua" }, "geometry": { "type": "Point", "coordinates": [ -120.61927780000001, 35.109361109999668 ] } },
{ "type": "Feature", "properties": { "LatDec": 35.25594444, "LonDec": -120.6431944, "FileNo": "A0651124", "Registrati": 1242523, "Title": "CHIEF TELECOM ENGINEER", "Address": "775 Capitolio Way", "City": "San Luis Obispo", "Zip": 93401, "TowerType": "UPOLE", "Field35": "2007-AWP-2435-OE", "Company": "Pacific Gas and Electric Company", "fullname": "AL BADELLA" }, "geometry": { "type": "Point", "coordinates": [ -120.6431944, 35.255944439999688 ] } },
{ "type": "Feature", "properties": { "LatDec": 35.26219444, "LonDec": -120.6978333, "FileNo": "A0812478", "Registrati": 1247684, "Title": "Associate General Counsel", "Address": "11175 Los Osos Valley Road", "City": "San Luis Obispo", "Zip": 93405, "TowerType": "POLE", "Field35": "2005-AWP-3490-OE", "Company": "SBA 2012 TC Assets, LLC", "fullname": "Edward Roach" }, "geometry": { "type": "Point", "coordinates": [ -120.6978333, 35.262194439999668 ] } },
{ "type": "Feature", "properties": { "LatDec": 35.1265, "LonDec": -120.6067222, "FileNo": "A0442792", "Registrati": 1247798, "Title": "Commander, Pismo Beach Police Dept", "Address": "1541 Hillcrest St.", "City": "Grover Ciry", "Zip": 93433, "TowerType": "TOWER", "Field35": "2005-AWP-922-OE", "Company": "City of  Pismo Beach", "fullname": "Jeff Norton" }, "geometry": { "type": "Point", "coordinates": [ -120.6067222, 35.126499999999666 ] } },
{ "type": "Feature", "properties": { "LatDec": 35.23702778, "LonDec": -120.6868889, "FileNo": "A0506625", "Registrati": 1248802, "Title": "CHIEF TELECOM ENGINEER", "Address": "1800 Calle Joaquin", "City": "San Luis Obispo", "Zip": 93405, "TowerType": "UPOLE", "Field35": "2005-AWP-450-OE", "Company": "Pacific Gas and Electric Company", "fullname": "AL BADELLA" }, "geometry": { "type": "Point", "coordinates": [ -120.6868889, 35.237027779999657 ] } },
{ "type": "Feature", "properties": { "LatDec": 35.26113889, "LonDec": -120.6344167, "FileNo": "A0462404", "Registrati": 1248804, "Title": "CHIEF TELECOM ENGINEER", "Address": "3740 Orcutt Road", "City": "San Luis Obispo", "Zip": 93401, "TowerType": "UPOLE", "Field35": "2005-AWP-451-OE", "Company": "Pacific Gas and Electric Company", "fullname": "AL BADELLA" }, "geometry": { "type": "Point", "coordinates": [ -120.6344167, 35.261138889999664 ] } },
{ "type": "Feature", "properties": { "LatDec": 35.10663889, "LonDec": -120.6268333, "FileNo": "A0626878", "Registrati": 1251372, "Title": "SENIOR TELECOMMUNICATIONS ENGINEER", "Address": "555 PIER AVE", "City": "OCEANO", "Zip": 93445, "TowerType": "TOWER", "Field35": "2005-AWP-1843-OE", "Company": "CALIFORNIA, STATE OF", "fullname": "JOHN LEMMON" }, "geometry": { "type": "Point", "coordinates": [ -120.6268333, 35.106638889999665 ] } },
{ "type": "Feature", "properties": { "LatDec": 35.33544444, "LonDec": -120.74736110000001, "FileNo": "A0494547", "Registrati": 1252446, "Title": "Director MOG", "Address": "Cuesta College", "City": "San Luis Obispo", "Zip": 93405, "TowerType": "TOWER", "Field35": "2005-AWP-5949-OE", "Company": "San Luis Obispo Community College District", "fullname": "Terry Reece" }, "geometry": { "type": "Point", "coordinates": [ -120.74736110000002, 35.335444439999684 ] } },
{ "type": "Feature", "properties": { "LatDec": 35.29058333, "LonDec": -120.6576667, "FileNo": "A0799244", "Registrati": 1253839, "Title": "Vice President - PMO\/M&P", "Address": "620 CALIFORNIA BLVD.", "City": "SAN LUIS OBISPO", "Zip": 93401, "TowerType": "TOWER", "Field35": "2006-AWP-3137-OE", "Company": "New Cingular Wireless PCS, LLC", "fullname": "John Monday" }, "geometry": { "type": "Point", "coordinates": [ -120.6576667, 35.290583329999663 ] } },
{ "type": "Feature", "properties": { "LatDec": 35.27777778, "LonDec": -120.6525, "FileNo": "A0508852", "Registrati": 1254041, "Title": "Consultant", "Address": "1900 Ruth Street", "City": "San Luis Obispo", "Zip": 93401, "TowerType": "2TA1", "Field35": "2005-AWP-5680-OE", "Company": null, "fullname": "Scott Powell" }, "geometry": { "type": "Point", "coordinates": [ -120.6525, 35.277777779999688 ] } },
{ "type": "Feature", "properties": { "LatDec": 35.27777778, "LonDec": -120.6525, "FileNo": "A0508852", "Registrati": 1254041, "Title": "Consultant", "Address": "1900 Ruth Street", "City": "San Luis Obispo", "Zip": 93401, "TowerType": "2TA1", "Field35": "2005-AWP-5680-OE", "Company": null, "fullname": "Scott Powell" }, "geometry": { "type": "Point", "coordinates": [ -120.6525, 35.277777779999688 ] } },
{ "type": "Feature", "properties": { "LatDec": 35.2775, "LonDec": -120.6525, "FileNo": "A0508856", "Registrati": 1254042, "Title": "Consultant", "Address": "1900 Ruth Street", "City": "San Luis Obispo", "Zip": 93401, "TowerType": "2TA2", "Field35": "2005-AWP-5680-OE", "Company": null, "fullname": "Scott Powell" }, "geometry": { "type": "Point", "coordinates": [ -120.6525, 35.277499999999684 ] } },
{ "type": "Feature", "properties": { "LatDec": 35.27777778, "LonDec": -120.6525, "FileNo": "A0508856", "Registrati": 1254042, "Title": "Consultant", "Address": "1900 Ruth Street", "City": "San Luis Obispo", "Zip": 93401, "TowerType": "2TA2", "Field35": "2005-AWP-5680-OE", "Company": null, "fullname": "Scott Powell" }, "geometry": { "type": "Point", "coordinates": [ -120.6525, 35.277777779999688 ] } },
{ "type": "Feature", "properties": { "LatDec": 35.27030556, "LonDec": -120.6556389, "FileNo": "A0513517", "Registrati": 1254491, "Title": "Project Manager, Finance & IT", "Address": "2160 Santa Barbara Ave., Fire Station 1", "City": "San Luis Obispo", "Zip": 93401, "TowerType": "TOWER", "Field35": "2006-AWP-1932-OE", "Company": "San Luis Obispo, City of", "fullname": "Steve Schmidt" }, "geometry": { "type": "Point", "coordinates": [ -120.65563890000001, 35.270305559999677 ] } },
{ "type": "Feature", "properties": { "LatDec": 35.26413889, "LonDec": -120.65069440000001, "FileNo": "A0590319", "Registrati": 1255260, "Title": "Corporate Counsel", "Address": "2880 Broad Street (SV01682B)", "City": "San Luis Obispo", "Zip": 93401, "TowerType": "TREE", "Field35": "2006-AWP-4940-OE", "Company": "Omnipoint Communications Inc.", "fullname": "Marin Fettman" }, "geometry": { "type": "Point", "coordinates": [ -120.65069440000002, 35.264138889999664 ] } },
{ "type": "Feature", "properties": { "LatDec": 35.26097222, "LonDec": -120.6343056, "FileNo": "A0758582", "Registrati": 1255533, "Title": "IT MANAGER", "Address": "3740 Orcutt Road", "City": "San Luis Obispo", "Zip": 93401, "TowerType": "TOWER", "Field35": "2011-AWP-6554-OE", "Company": "Pacific Gas and Electric Company", "fullname": "M JOSEPH HEARNEY II" }, "geometry": { "type": "Point", "coordinates": [ -120.63430560000002, 35.260972219999672 ] } },
{ "type": "Feature", "properties": { "LatDec": 35.23683333, "LonDec": -120.6870278, "FileNo": "A0710290", "Registrati": 1267068, "Title": "FCC Coordination Supervisor", "Address": "1800 Calle Joaquin,", "City": "San Luis Obispo", "Zip": 93405, "TowerType": "TOWER", "Field35": "2008-AWP-7049-OE", "Company": "Pacific Gas and Electric Company", "fullname": "Jennifer DeKeyser" }, "geometry": { "type": "Point", "coordinates": [ -120.68702780000001, 35.236833329999683 ] } },
{ "type": "Feature", "properties": { "LatDec": 35.33275, "LonDec": -120.71902780000001, "FileNo": "A0787762", "Registrati": 1268372, "Title": "CORP COUNSEL", "Address": "Highway 1 and San Joaquin Avenue  (SV00071A)", "City": "San Luis Obispo", "Zip": 93405, "TowerType": "TOWER", "Field35": "2008-AWP-7185-OE", "Company": "T-Mobile West LLC", "fullname": "SHANNON KRAUS" }, "geometry": { "type": "Point", "coordinates": [ -120.71902780000001, 35.332749999999685 ] } },
{ "type": "Feature", "properties": { "LatDec": 35.02836111, "LonDec": -120.4961667, "FileNo": "A0812924", "Registrati": 1269313, "Title": "Associate General Counsel", "Address": "913 W. Tefft", "City": "Nipomo", "Zip": 93444, "TowerType": "TOWER", "Field35": "2009-AWP-3144-OE", "Company": "SBA 2012 TC Assets, LLC", "fullname": "Edward Roach" }, "geometry": { "type": "Point", "coordinates": [ -120.4961667, 35.028361109999665 ] } },
{ "type": "Feature", "properties": { "LatDec": 35.364, "LonDec": -120.8250278, "FileNo": "A0813030", "Registrati": 1269483, "Title": "Associate General Counsel", "Address": "1478 Quintana Road", "City": "Morro Bay", "Zip": 93442, "TowerType": "TOWER", "Field35": "2009-AWP-3351-OE", "Company": "SBA 2012 TC Assets, LLC", "fullname": "Edward Roach" }, "geometry": { "type": "Point", "coordinates": [ -120.8250278, 35.363999999999677 ] } },
{ "type": "Feature", "properties": { "LatDec": 35.26111111, "LonDec": -120.63444440000001, "FileNo": "A0758584", "Registrati": 1269715, "Title": "IT MANAGER", "Address": "Transmission Tower 15\/90  3740 Orcutt Road,", "City": "San Luis Obispo", "Zip": 93401, "TowerType": "TOWER", "Field35": "2011-awp-6560-oe", "Company": "Pacific Gas and Electric Company", "fullname": "M JOSEPH HEARNEY II" }, "geometry": { "type": "Point", "coordinates": [ -120.63444440000001, 35.261111109999682 ] } },
{ "type": "Feature", "properties": { "LatDec": 35.26166667, "LonDec": -120.6334722, "FileNo": "A0697402", "Registrati": 1271085, "Title": "FCC Coordination Desk Supervisor", "Address": "3740 Orcutt Road-Tower 15\/91", "City": "San Luis Obispo", "Zip": 93401, "TowerType": "TOWER", "Field35": "2009-AWP-3920-OE", "Company": "Pacific Gas and Electric Company", "fullname": "Jennifer DeKeyser" }, "geometry": { "type": "Point", "coordinates": [ -120.63347220000001, 35.26166666999967 ] } },
{ "type": "Feature", "properties": { "LatDec": 35.27711111, "LonDec": -120.6427222, "FileNo": "A0800084", "Registrati": 1277230, "Title": "Vice President - PMO\/M&P", "Address": "2230 FLORA AVE", "City": "SAN LUIS OBISPO", "Zip": 93401, "TowerType": "POLE", "Field35": "2010-AWP-6769-OE", "Company": "New Cingular Wireless PCS, LLC", "fullname": "John Monday" }, "geometry": { "type": "Point", "coordinates": [ -120.6427222, 35.27711110999968 ] } },
{ "type": "Feature", "properties": { "LatDec": 35.33561111, "LonDec": -120.7463889, "FileNo": "A0726163", "Registrati": 1278693, "Title": "Dir Facility Services", "Address": "3535 education Dr.", "City": "San Luis Obispo", "Zip": 93405, "TowerType": "TOWER", "Field35": "2010-AWP-7825-OE", "Company": "San Luis Obispo County Community College", "fullname": "Terry Reece" }, "geometry": { "type": "Point", "coordinates": [ -120.7463889, 35.335611109999682 ] } },
{ "type": "Feature", "properties": { "LatDec": 35.39255556, "LonDec": -120.3524722, "FileNo": "A0804115", "Registrati": 1281040, "Title": "ASSISTANT SECRETARY OF MANAGER", "Address": "10500 Black Mountain Road", "City": "Santa Margarita", "Zip": 93453, "TowerType": "TOWER", "Field35": "2011-AWP-4954-OE", "Company": "NEW CINGULAR WIRELESS PCS, LLC", "fullname": "MICHAEL GOGGIN" }, "geometry": { "type": "Point", "coordinates": [ -120.3524722, 35.392555559999671 ] } },
{ "type": "Feature", "properties": { "LatDec": 35.09886111, "LonDec": -119.8668611, "FileNo": "A0804131", "Registrati": 1281612, "Title": "ASSISTANT SECRETARY OF MANAGER", "Address": "Taylor Canyon", "City": "California Valley", "Zip": 93453, "TowerType": "POLE", "Field35": "2011-AWP-5097-OE", "Company": "NEW CINGULAR WIRELESS PCS, LLC", "fullname": "MICHAEL GOGGIN" }, "geometry": { "type": "Point", "coordinates": [ -119.86686110000001, 35.09886110999966 ] } },
{ "type": "Feature", "properties": { "LatDec": 35.24783333, "LonDec": -120.6716667, "FileNo": "A0800830", "Registrati": 1281983, "Title": "Vice President - PMO\/M&P", "Address": "3825 S. Higuera Street", "City": "San Luis Obispo", "Zip": 93401, "TowerType": "POLE", "Field35": "2011-AWP-7152-OE", "Company": "New Cingular Wireless PCS, LLC", "fullname": "John Monday" }, "geometry": { "type": "Point", "coordinates": [ -120.6716667, 35.247833329999665 ] } },
{ "type": "Feature", "properties": { "LatDec": 35.65877778, "LonDec": -120.5745556, "FileNo": "A0842705", "Registrati": 1282772, "Title": "Director Telecom & Network Services", "Address": "TRANSMISSION TOWER 25\/106 EAST HWY 46", "City": "PASO ROBLES", "Zip": 93446, "TowerType": "TOWER", "Field35": "2011-AWP-8607-OE", "Company": "PACIFIC GAS AND ELECTRIC COMPANY", "fullname": "Loren Lemons" }, "geometry": { "type": "Point", "coordinates": [ -120.5745556, 35.658777779999689 ] } },
{ "type": "Feature", "properties": { "LatDec": 35.39441667, "LonDec": -120.7073889, "FileNo": "A0778595", "Registrati": 1283207, "Title": "IT MANAGER", "Address": "TASSAJARA PEAK TELECOM TOWER", "City": "SANTA MARGARITA", "Zip": 93453, "TowerType": "TOWER", "Field35": "2012-AWP-1600-OE", "Company": "PACIFIC GAS AND ELECTRIC COMPANY", "fullname": "M JOSEPH HEARNEY" }, "geometry": { "type": "Point", "coordinates": [ -120.70738890000001, 35.394416669999679 ] } },
{ "type": "Feature", "properties": { "LatDec": 35.33538889, "LonDec": -120.7463611, "FileNo": "A0759102", "Registrati": 1283616, "Title": null, "Address": "3535 Education Drive (SN25XC082-A)", "City": "San Luis Obispo", "Zip": 93405, "TowerType": "POLE", "Field35": "2012-AWP-624-OE", "Company": "Sprint Telephony PCS, L.P", "fullname": "Surya Charles" }, "geometry": { "type": "Point", "coordinates": [ -120.7463611, 35.335388889999663 ] } },
{ "type": "Feature", "properties": { "LatDec": 35.24444444, "LonDec": -120.6291667, "FileNo": "A0782232", "Registrati": 1285450, "Title": "Project Engineer", "Address": ".13 Miles east of intersection of Polnsettla St and Goldenrod Ln intersection.", "City": "San Luis Obispo", "Zip": 93401, "TowerType": "MTOWER", "Field35": "2012-AWP-5466-OE", "Company": "UNION PACIFIC RAILROAD COMPANY", "fullname": "Thomas McGovern" }, "geometry": { "type": "Point", "coordinates": [ -120.6291667, 35.244444439999683 ] } },
{ "type": "Feature", "properties": { "LatDec": 35.225, "LonDec": -120.6205556, "FileNo": "A0782233", "Registrati": 1285451, "Title": "Project Engineer", "Address": "1.5-2  Miles SE of city, NE of Los Ranchos road.", "City": "San Luis Obispo", "Zip": 93401, "TowerType": "MTOWER", "Field35": "2012-AWP-5501-OE", "Company": "UNION PACIFIC RAILROAD COMPANY", "fullname": "Thomas McGovern" }, "geometry": { "type": "Point", "coordinates": [ -120.6205556, 35.224999999999682 ] } },
{ "type": "Feature", "properties": { "LatDec": 35.30236111, "LonDec": -120.6556667, "FileNo": "A0828504", "Registrati": 1285769, "Title": "Regulatory Manager", "Address": "631 North Santa Rosa Street (61120518 \/ Cal Poly Campus)", "City": "San Luis Obispo", "Zip": 93405, "TowerType": "POLE", "Field35": "2012-AWP-6399-OE", "Company": "GTE Mobilnet of Santa Barbara Limited Partnership", "fullname": "Regulatory Manager" }, "geometry": { "type": "Point", "coordinates": [ -120.6556667, 35.302361109999673 ] } },
{ "type": "Feature", "properties": { "LatDec": 35.24444444, "LonDec": -120.6291667, "FileNo": "A0780902", "Registrati": 1286118, "Title": "Project Engineer", "Address": ".13 MI NE OF POINSETTIA ST & GOLDENROD LANE INTERSECTION", "City": "SAN LUIS OBISPO", "Zip": 93401, "TowerType": "MTOWER", "Field35": "2012-AWP-5466-OE", "Company": "UNION PACIFIC RAILROAD", "fullname": "Thomas McGovern" }, "geometry": { "type": "Point", "coordinates": [ -120.6291667, 35.244444439999683 ] } },
{ "type": "Feature", "properties": { "LatDec": 35.27294444, "LonDec": -120.6552222, "FileNo": "A0788371", "Registrati": 1286357, "Title": "Project Engineer", "Address": "400ft NE of High Street and Santa Barbara St intersection.", "City": "San Luis Obispo", "Zip": 93401, "TowerType": "MTOWER", "Field35": "2012-AWP-6516-OE", "Company": "UNION PACIFIC RAILROAD", "fullname": "Thomas McGovern" }, "geometry": { "type": "Point", "coordinates": [ -120.65522220000001, 35.272944439999662 ] } },
{ "type": "Feature", "properties": { "LatDec": 35.26186111, "LonDec": -120.645, "FileNo": "A0788372", "Registrati": 1286358, "Title": "Project Engineer", "Address": "450ft NW of Bullock Ln and Orcutt Rd intersection.", "City": "San Luis Obispo", "Zip": 93401, "TowerType": "MTOWER", "Field35": "2012-AWP-6468-OE", "Company": "UNION PACIFIC RAILROAD", "fullname": "Thomas McGovern" }, "geometry": { "type": "Point", "coordinates": [ -120.645, 35.261861109999664 ] } },
{ "type": "Feature", "properties": { "LatDec": 35.24902778, "LonDec": -120.68972220000001, "FileNo": "A0823535", "Registrati": 1287123, "Title": "Authorized Representative", "Address": "12165 Los Osos Valley Road", "City": "San Luis Obispo", "Zip": 93405, "TowerType": "TANK", "Field35": "2012-AWP-5889-OE", "Company": "GTE Mobilnet of Santa Barbara Limited Partnership", "fullname": "Mikhail Raznobriadsev" }, "geometry": { "type": "Point", "coordinates": [ -120.68972220000002, 35.249027779999665 ] } },
{ "type": "Feature", "properties": { "LatDec": 35.33561111, "LonDec": -120.74625, "FileNo": "A0832507", "Registrati": 1287342, "Title": "VP-PMO\/M&P", "Address": "3535 Education Dr - SLG28", "City": "San Luis Obispo", "Zip": 93405, "TowerType": "POLE", "Field35": "2013-AWP-92-OE", "Company": "New Cingular Wireless PCS, LLC", "fullname": "John Monday" }, "geometry": { "type": "Point", "coordinates": [ -120.74625, 35.335611109999682 ] } }
]
}
